1: 24.10.2014.19.2.38.227
#BESTVELA,COM1,0,58.5,FINESTEERING,1815,493260.800,00000000,827b,6988;SOL_COMPUTED,PSRDIFF,0.150,221.000,0.0336,166.242521,-0.0081,0.0*311e9391
2: 24.10.2014.19.2.38.228
#BESTUTMA,COM1,0,58.5,FINESTEERING,1815,493260.800,00000000,eb16,6988;SOL_COMPUTED,PSRDIFF,30,T,4467786.5677,434255.8274,666.3304,52.1000,WGS84,2.9417,2.1741,5.1275,"0",221.000,0.000,17,13,0,0,0,08,0,01*85624e19
3: 24.10.2014.19.2.38.229
#BESTVELA,COM1,0,58.5,FINESTEERING,1815,493261.000,00000000,827b,6988;SOL_COMPUTED,PSRDIFF,0.150,221.200,0.0266,301.963850,-0.0172,0.0*042c89ef
4: 24.10.2014.19.2.38.230
#BESTUTMA,COM1,0,58.5,FINESTEERING,1815,493261.000,00000000,eb16,6988;SOL_COMPUTED,PSRDIFF,30,T,4467786.5842,434255.8075,666.3376,52.1000,WGS84,2.9461,2.1774,5.1355,"0",221.200,0.000,16,13,0,0,0,08,0,01*4d7db485
5: 24.10.2014.19.2.38.231
#BESTVELA,COM1,0,58.5,FINESTEERING,1815,493261.200,00000000,827b,6988;SOL_COMPUTED,PSRDIFF,0.150,221.400,0.0289,162.903724,0.0165,0.0*696d6084
6: 24.10.2014.19.2.38.232
#BESTUTMA,COM1,0,58.5,FINESTEERING,1815,493261.200,00000000,eb16,6988;SOL_COMPUTED,PSRDIFF,30,T,4467786.5773,434255.8008,666.3382,52.1000,WGS84,2.9507,2.1809,5.1437,"0",221.400,0.000,16,13,0,0,0,08,0,01*5c39c3ec
7: 24.10.2014.19.2.38.233
#BESTVELA,COM1,0,58.5,FINESTEERING,1815,493261.400,00000000,827b,6988;SOL_COMPUTED,PSRDIFF,0.150,221.600,0.0509,353.763645,-0.0428,0.0*2e5a22fc
8: 24.10.2014.19.2.38.234
#BESTUTMA,COM1,0,58.5,FINESTEERING,1815,493261.400,00000000,eb16,6988;SOL_COMPUTED,PSRDIFF,30,T,4467786.5758,434255.8083,666.3249,52.1000,WGS84,2.9556,2.1845,5.1520,"0",221.600,0.000,17,13,0,0,0,08,0,01*55026f3d
9: 24.10.2014.19.2.38.235
#BESTVELA,COM1,0,58.5,FINESTEERING,1815,493261.600,00000000,827b,6988;SOL_COMPUTED,PSRDIFF,0.150,221.800,0.0189,137.506106,-0.0046,0.0*9efc09ed
10: 24.10.2014.19.2.38.235
#BESTUTMA,COM1,0,58.5,FINESTEERING,1815,493261.600,00000000,eb16,6988;SOL_COMPUTED,PSRDIFF,30,T,4467786.5869,434255.7969,666.3262,52.1000,WGS84,2.9600,2.1875,5.1602,"0",221.800,0.000,17,13,0,0,0,08,0,01*e526426d
11: 24.10.2014.19.2.38.237
#BESTVELA,COM1,0,58.5,FINESTEERING,1815,493261.800,00000000,827b,6988;SOL_COMPUTED,PSRDIFF,0.150,222.000,0.0069,236.559521,0.0064,0.0*b4c123f2
12: 24.10.2014.19.2.38.237
#BESTUTMA,COM1,0,58.5,FINESTEERING,1815,493261.800,00000000,eb16,6988;SOL_COMPUTED,PSRDIFF,30,T,4467786.5816,434255.7895,666.3270,52.1000,WGS84,2.9645,2.1910,5.1682,"0",222.000,0.000,18,13,0,0,0,08,0,01*5b435093
13: 24.10.2014.19.2.38.238
#BESTVELA,COM1,0,60.0,FINESTEERING,1815,493262.000,00000000,827b,6988;SOL_COMPUTED,PSRDIFF,0.150,222.200,0.0280,238.331365,0.0043,0.0*0d8baaeb
14: 24.10.2014.19.2.38.240
#BESTUTMA,COM1,0,60.0,FINESTEERING,1815,493262.000,00000000,eb16,6988;SOL_COMPUTED,PSRDIFF,30,T,4467786.5717,434255.7904,666.3247,52.1000,WGS84,2.9689,2.1944,5.1763,"0",222.200,0.000,18,13,0,0,0,08,0,01*df181fcc
15: 24.10.2014.19.2.38.241
#BESTVELA,COM1,0,60.0,FINESTEERING,1815,493262.200,00000000,827b,6988;SOL_COMPUTED,PSRDIFF,0.150,222.400,0.0418,350.771206,-0.0029,0.0*cc44d29c
16: 24.10.2014.19.2.38.241
#BESTUTMA,COM1,0,60.0,FINESTEERING,1815,493262.200,00000000,eb16,6988;SOL_COMPUTED,PSRDIFF,30,T,4467786.5499,434255.8072,666.3246,52.1000,WGS84,2.9735,2.1979,5.1843,"0",222.400,0.000,18,13,0,0,0,08,0,01*a6cc7358
17: 24.10.2014.19.2.38.242
#BESTVELA,COM1,0,60.0,FINESTEERING,1815,493262.400,00000000,827b,6988;SOL_COMPUTED,PSRDIFF,0.150,222.600,0.0010,170.859253,-0.0099,0.0*6b5b9200
18: 24.10.2014.19.2.38.243
#BESTUTMA,COM1,0,60.0,FINESTEERING,1815,493262.400,00000000,eb16,6988;SOL_COMPUTED,PSRDIFF,30,T,4467786.5338,434255.8079,666.3376,52.1000,WGS84,2.9782,2.2016,5.1925,"0",222.600,0.000,17,13,0,0,0,08,0,01*5f2126a5
19: 24.10.2014.19.2.38.316
#BESTVELA,COM1,0,60.0,FINESTEERING,1815,493262.600,00000000,827b,6988;SOL_COMPUTED,PSRDIFF,0.150,222.800,0.0435,60.251915,-0.0422,0.0*b883ccc5
20: 24.10.2014.19.2.38.395
#BESTUTMA,COM1,0,60.0,FINESTEERING,1815,493262.600,00000000,eb16,6988;SOL_COMPUTED,PSRDIFF,30,T,4467786.5293,434255.8077,666.3319,52.1000,WGS84,2.9826,2.2048,5.2006,"0",222.800,0.000,18,13,0,0,0,08,0,01*01fc2aa4
21: 24.10.2014.19.2.38.507
#BESTVELA,COM1,0,60.0,FINESTEERING,1815,493262.800,00000000,827b,6988;SOL_COMPUTED,PSRDIFF,0.150,223.000,0.0204,316.923163,-0.0142,0.0*19ecee64
22: 24.10.2014.19.2.38.603
#BESTUTMA,COM1,0,60.0,FINESTEERING,1815,493262.800,00000000,eb16,6988;SOL_COMPUTED,PSRDIFF,30,T,4467786.5240,434255.8084,666.3354,52.1000,WGS84,2.9880,2.2096,5.2088,"0",223.000,0.000,17,13,0,0,0,08,0,01*0d416188
23: 24.10.2014.19.2.38.714
#BESTVELA,COM1,0,61.5,FINESTEERING,1815,493263.000,00000000,827b,6988;SOL_COMPUTED,PSRDIFF,0.150,223.200,0.0112,204.072718,0.0484,0.0*a6787a5e
24: 24.10.2014.19.2.38.794
#BESTUTMA,COM1,0,61.5,FINESTEERING,1815,493263.000,00000000,eb16,6988;SOL_COMPUTED,PSRDIFF,30,T,4467786.5117,434255.7966,666.3555,52.1000,WGS84,2.9917,2.2115,5.2169,"0",223.200,0.000,17,13,0,0,0,08,0,01*3d2123ee
25: 24.10.2014.19.2.38.905
#BESTVELA,COM1,0,61.5,FINESTEERING,1815,493263.200,00000000,827b,6988;SOL_COMPUTED,PSRDIFF,0.150,223.400,0.0211,248.233298,-0.0332,0.0*8b4d93eb
26: 24.10.2014.19.2.39.1
#BESTUTMA,COM1,0,61.5,FINESTEERING,1815,493263.200,00000000,eb16,6988;SOL_COMPUTED,PSRDIFF,30,T,4467786.5186,434255.7849,666.3575,52.1000,WGS84,2.9964,2.2149,5.2251,"0",223.400,0.000,17,13,0,0,0,08,0,01*c5899184
27: 24.10.2014.19.2.39.113
#BESTVELA,COM1,0,61.5,FINESTEERING,1815,493263.400,00000000,827b,6988;SOL_COMPUTED,PSRDIFF,0.150,223.600,0.0388,103.898575,0.0410,0.0*63c66c09
28: 24.10.2014.19.2.39.192
#BESTUTMA,COM1,0,61.5,FINESTEERING,1815,493263.400,00000000,eb16,6988;SOL_COMPUTED,PSRDIFF,30,T,4467786.5066,434255.7870,666.3482,52.1000,WGS84,3.0011,2.2187,5.2334,"0",223.600,0.000,17,13,0,0,0,08,0,01*15a24823
29: 24.10.2014.19.2.39.304
#BESTVELA,COM1,0,61.5,FINESTEERING,1815,493263.600,00000000,827b,6988;SOL_COMPUTED,PSRDIFF,0.150,223.800,0.0173,334.811225,-0.0062,0.0*23639859
30: 24.10.2014.19.2.39.400
#BESTUTMA,COM1,0,61.5,FINESTEERING,1815,493263.600,00000000,eb16,6988;SOL_COMPUTED,PSRDIFF,30,T,4467786.5047,434255.7896,666.3384,52.1000,WGS84,3.0057,2.2221,5.2415,"0",223.800,0.000,16,13,0,0,0,08,0,01*130a2f7e
31: 24.10.2014.19.2.39.511
#BESTVELA,COM1,0,60.0,FINESTEERING,1815,493263.800,00000000,827b,6988;SOL_COMPUTED,PSRDIFF,0.150,224.000,0.0107,209.561856,0.0464,0.0*0db5e691
32: 24.10.2014.19.2.39.591
#BESTUTMA,COM1,0,60.0,FINESTEERING,1815,493263.800,00000000,eb16,6988;SOL_COMPUTED,PSRDIFF,30,T,4467786.4967,434255.7857,666.3450,52.1000,WGS84,3.0103,2.2255,5.2497,"0",224.000,0.000,16,13,0,0,0,08,0,01*a62267d8
33: 24.10.2014.19.2.39.702
#BESTVELA,COM1,0,60.0,FINESTEERING,1815,493264.000,00000000,827b,6988;SOL_COMPUTED,PSRDIFF,0.150,224.200,0.0206,184.949459,-0.0117,0.0*a2982e55
34: 24.10.2014.19.2.39.798
#BESTUTMA,COM1,0,60.0,FINESTEERING,1815,493264.000,00000000,eb16,6988;SOL_COMPUTED,PSRDIFF,30,T,4467786.5057,434255.7808,666.3425,52.1000,WGS84,3.0147,2.2286,5.2579,"0",224.200,0.000,17,13,0,0,0,08,0,01*f6c4cb77
35: 24.10.2014.19.2.39.910
#BESTVELA,COM1,0,60.0,FINESTEERING,1815,493264.200,00000000,827b,6988;SOL_COMPUTED,PSRDIFF,0.150,224.400,0.0167,305.383742,-0.0448,0.0*7a602784
36: 24.10.2014.19.2.39.989
#BESTUTMA,COM1,0,60.0,FINESTEERING,1815,493264.200,00000000,eb16,6988;SOL_COMPUTED,PSRDIFF,30,T,4467786.4945,434255.7814,666.3369,52.1000,WGS84,3.0194,2.2322,5.2662,"0",224.400,0.000,17,13,0,0,0,08,0,01*1143395b
37: 24.10.2014.19.2.40.101
#BESTVELA,COM1,0,60.0,FINESTEERING,1815,493264.400,00000000,827b,6988;SOL_COMPUTED,PSRDIFF,0.150,224.600,0.0177,201.627155,-0.0187,0.0*d6ec25a7
38: 24.10.2014.19.2.40.197
#BESTUTMA,COM1,0,60.0,FINESTEERING,1815,493264.400,00000000,eb16,6988;SOL_COMPUTED,PSRDIFF,30,T,4467786.4845,434255.7764,666.3426,52.1000,WGS84,3.0242,2.2357,5.2745,"0",224.600,0.000,18,13,0,0,0,08,0,01*d0491287
39: 24.10.2014.19.2.40.308
#BESTVELA,COM1,0,60.0,FINESTEERING,1815,493264.600,00000000,827b,6988;SOL_COMPUTED,PSRDIFF,0.150,224.800,0.0432,177.385404,0.0330,0.0*50b69003
40: 24.10.2014.19.2.40.404
#BESTUTMA,COM1,0,60.0,FINESTEERING,1815,493264.600,00000000,eb16,6988;SOL_COMPUTED,PSRDIFF,30,T,4467786.4854,434255.7740,666.3410,52.1000,WGS84,3.0289,2.2395,5.2827,"0",224.800,0.000,18,13,0,0,0,08,0,01*b03b31b8
41: 24.10.2014.19.2.40.515
#BESTVELA,COM1,0,60.0,FINESTEERING,1815,493264.800,00000000,827b,6988;SOL_COMPUTED,PSRDIFF,0.150,225.000,0.0112,88.663194,-0.0475,0.0*cbb2650c
42: 24.10.2014.19.2.40.595
#BESTUTMA,COM1,0,60.0,FINESTEERING,1815,493264.800,00000000,eb16,6988;SOL_COMPUTED,PSRDIFF,30,T,4467786.4952,434255.7739,666.3368,52.1000,WGS84,3.0335,2.2429,5.2909,"0",225.000,0.000,18,13,0,0,0,08,0,01*a645c963
43: 24.10.2014.19.2.40.707
#BESTVELA,COM1,0,61.0,FINESTEERING,1815,493265.000,00000000,827b,6988;SOL_COMPUTED,PSRDIFF,0.150,225.200,0.0162,144.533056,-0.0170,0.0*ce8e1007
44: 24.10.2014.19.2.40.802
#BESTUTMA,COM1,0,61.0,FINESTEERING,1815,493265.000,00000000,eb16,6988;SOL_COMPUTED,PSRDIFF,30,T,4467786.5123,434255.7622,666.3413,52.1000,WGS84,3.0378,2.2457,5.2992,"0",225.200,0.000,17,13,0,0,0,08,0,01*5799e048
45: 24.10.2014.19.2.40.914
#BESTVELA,COM1,0,61.0,FINESTEERING,1815,493265.200,00000000,827b,6988;SOL_COMPUTED,PSRDIFF,0.150,225.400,0.0052,109.708457,0.0023,0.0*e0323a51
46: 24.10.2014.19.2.40.993
#BESTUTMA,COM1,0,61.0,FINESTEERING,1815,493265.200,00000000,eb16,6988;SOL_COMPUTED,PSRDIFF,30,T,4467786.5035,434255.7600,666.3350,52.1000,WGS84,3.0423,2.2490,5.3074,"0",225.400,0.000,18,13,0,0,0,08,0,01*30f59a29
47: 24.10.2014.19.2.41.105
#BESTVELA,COM1,0,61.0,FINESTEERING,1815,493265.400,00000000,827b,6988;SOL_COMPUTED,PSRDIFF,0.150,225.600,0.0159,168.564121,-0.0234,0.0*b0c42a49
48: 24.10.2014.19.2.41.201
#BESTUTMA,COM1,0,61.0,FINESTEERING,1815,493265.400,00000000,eb16,6988;SOL_COMPUTED,PSRDIFF,30,T,4467786.5053,434255.7493,666.3338,52.1000,WGS84,3.0471,2.2529,5.3156,"0",225.600,0.000,17,13,0,0,0,08,0,01*bd83a4e9
49: 24.10.2014.19.2.41.312
#BESTVELA,COM1,0,61.0,FINESTEERING,1815,493265.600,00000000,827b,6988;SOL_COMPUTED,PSRDIFF,0.150,225.800,0.0092,114.733476,-0.0080,0.0*24e00803
50: 24.10.2014.19.2.41.392
#BESTUTMA,COM1,0,61.0,FINESTEERING,1815,493265.600,00000000,eb16,6988;SOL_COMPUTED,PSRDIFF,30,T,4467786.5021,434255.7555,666.3294,52.1000,WGS84,3.0518,2.2563,5.3239,"0",225.800,0.000,17,13,0,0,0,08,0,01*33b3761f
51: 24.10.2014.19.2.41.504
#BESTVELA,COM1,0,60.0,FINESTEERING,1815,493265.800,00000000,827b,6988;SOL_COMPUTED,PSRDIFF,0.150,226.000,0.0126,295.441208,0.0259,0.0*0e99fe31
52: 24.10.2014.19.2.41.599
#BESTUTMA,COM1,0,60.0,FINESTEERING,1815,493265.800,00000000,eb16,6988;SOL_COMPUTED,PSRDIFF,30,T,4467786.5073,434255.7468,666.3267,52.1000,WGS84,3.0564,2.2597,5.3322,"0",226.000,0.000,17,13,0,0,0,08,0,01*53a4748c
53: 24.10.2014.19.2.41.711
#BESTVELA,COM1,0,60.0,FINESTEERING,1815,493266.000,00000000,827b,6988;SOL_COMPUTED,PSRDIFF,0.150,226.200,0.0156,153.830488,-0.0081,0.0*bdb6012f
54: 24.10.2014.19.2.41.806
#BESTUTMA,COM1,0,60.0,FINESTEERING,1815,493266.000,00000000,eb16,6988;SOL_COMPUTED,PSRDIFF,30,T,4467786.5043,434255.7460,666.3175,52.1000,WGS84,3.0617,2.2643,5.3405,"0",226.200,0.000,17,13,0,0,0,08,0,01*3e7ccae0
55: 24.10.2014.19.2.41.918
#BESTVELA,COM1,0,60.0,FINESTEERING,1815,493266.200,00000000,827b,6988;SOL_COMPUTED,PSRDIFF,0.150,226.400,0.0551,27.948940,-0.0468,0.0*32c3b3f2
56: 24.10.2014.19.2.41.998
#BESTUTMA,COM1,0,60.0,FINESTEERING,1815,493266.200,00000000,eb16,6988;SOL_COMPUTED,PSRDIFF,30,T,4467786.5002,434255.7518,666.3062,52.1000,WGS84,3.0665,2.2680,5.3489,"0",226.400,0.000,16,13,0,0,0,08,0,01*54ad07b8
57: 24.10.2014.19.2.42.109
#BESTVELA,COM1,0,60.0,FINESTEERING,1815,493266.400,00000000,827b,6988;SOL_COMPUTED,PSRDIFF,0.150,226.600,0.0046,185.209264,-0.0101,0.0*77e4bd6a
58: 24.10.2014.19.2.42.205
#BESTUTMA,COM1,0,60.0,FINESTEERING,1815,493266.400,00000000,eb16,6988;SOL_COMPUTED,PSRDIFF,30,T,4467786.4964,434255.7562,666.3040,52.1000,WGS84,3.0709,2.2711,5.3571,"0",226.600,0.000,16,13,0,0,0,08,0,01*1068f83c
59: 24.10.2014.19.2.42.316
#BESTVELA,COM1,0,60.0,FINESTEERING,1815,493266.600,00000000,827b,6988;SOL_COMPUTED,PSRDIFF,0.150,226.800,0.0146,241.325105,0.0007,0.0*7ec8067b
60: 24.10.2014.19.2.42.396
#BESTUTMA,COM1,0,60.0,FINESTEERING,1815,493266.600,00000000,eb16,6988;SOL_COMPUTED,PSRDIFF,30,T,4467786.2776,434255.9984,666.1956,52.1000,WGS84,3.1045,2.3246,5.3691,"0",226.800,0.000,16,12,0,0,0,08,0,01*fa6ec101
61: 24.10.2014.19.2.42.508
#BESTVELA,COM1,0,60.0,FINESTEERING,1815,493266.800,00000000,827b,6988;SOL_COMPUTED,PSRDIFF,0.150,227.000,0.0258,26.938731,-0.0239,0.0*cc6fe8f3
62: 24.10.2014.19.2.42.603
#BESTUTMA,COM1,0,60.0,FINESTEERING,1815,493266.800,00000000,eb16,6988;SOL_COMPUTED,PSRDIFF,30,T,4467786.4882,434255.7696,666.2923,52.1000,WGS84,3.0803,2.2784,5.3736,"0",227.000,0.000,17,13,0,0,0,08,0,01*775016c4
63: 24.10.2014.19.2.42.715
#BESTVELA,COM1,0,55.5,FINESTEERING,1815,493267.000,00000000,827b,6988;SOL_COMPUTED,PSRDIFF,0.150,227.200,0.0333,186.279871,0.0205,0.0*f63fa79c
64: 24.10.2014.19.2.42.794
#BESTUTMA,COM1,0,55.5,FINESTEERING,1815,493267.000,00000000,eb16,6988;SOL_COMPUTED,PSRDIFF,30,T,4467786.4975,434255.7561,666.2972,52.1000,WGS84,3.0847,2.2816,5.3819,"0",227.200,0.000,18,13,0,0,0,08,0,01*ce97afa1
65: 24.10.2014.19.2.42.906
#BESTVELA,COM1,0,55.5,FINESTEERING,1815,493267.200,00000000,827b,6988;SOL_COMPUTED,PSRDIFF,0.150,227.400,0.0335,127.670474,0.0081,0.0*05346333
66: 24.10.2014.19.2.43.2
#BESTUTMA,COM1,0,55.5,FINESTEERING,1815,493267.200,00000000,eb16,6988;SOL_COMPUTED,PSRDIFF,30,T,4467786.4884,434255.7510,666.3115,52.1000,WGS84,3.0890,2.2843,5.3901,"0",227.400,0.000,18,13,0,0,0,08,0,01*4980d056
67: 24.10.2014.19.2.43.113
#BESTVELA,COM1,0,55.5,FINESTEERING,1815,493267.400,00000000,827b,6988;SOL_COMPUTED,PSRDIFF,0.150,227.600,0.0268,203.516038,-0.0195,0.0*5d12a7f3
68: 24.10.2014.19.2.43.193
#BESTUTMA,COM1,0,55.5,FINESTEERING,1815,493267.400,00000000,eb16,6988;SOL_COMPUTED,PSRDIFF,30,T,4467786.4806,434255.7519,666.3177,52.1000,WGS84,3.0953,2.2907,5.3987,"0",227.600,0.000,18,13,0,0,0,08,0,01*91316f33
69: 24.10.2014.19.2.43.305
#BESTVELA,COM1,0,55.5,FINESTEERING,1815,493267.600,00000000,827b,6988;SOL_COMPUTED,PSRDIFF,0.150,227.800,0.0088,358.870236,0.0217,0.0*582a66ca
70: 24.10.2014.19.2.43.401
#BESTUTMA,COM1,0,55.5,FINESTEERING,1815,493267.600,00000000,eb16,6988;SOL_COMPUTED,PSRDIFF,30,T,4467786.4876,434255.7355,666.3292,52.1000,WGS84,3.0988,2.2921,5.4069,"0",227.800,0.000,17,13,0,0,0,08,0,01*7654c928
71: 24.10.2014.19.2.43.513
#BESTVELA,COM1,0,55.5,FINESTEERING,1815,493267.800,00000000,827b,6988;SOL_COMPUTED,PSRDIFF,0.150,228.000,0.0142,170.609046,-0.0084,0.0*2d73791f
72: 24.10.2014.19.2.43.592
#BESTUTMA,COM1,0,55.5,FINESTEERING,1815,493267.800,00000000,eb16,6988;SOL_COMPUTED,PSRDIFF,30,T,4467786.2687,434255.9791,666.2237,52.1000,WGS84,3.1327,2.3459,5.4191,"0",228.000,0.000,17,12,0,0,0,08,0,01*98e7bd20
73: 24.10.2014.19.2.43.704
#BESTVELA,COM1,0,55.5,FINESTEERING,1815,493268.000,00000000,827b,6988;SOL_COMPUTED,PSRDIFF,0.150,228.200,0.0354,349.644897,-0.0058,0.0*542a1f13
74: 24.10.2014.19.2.43.800
#BESTUTMA,COM1,0,55.5,FINESTEERING,1815,493268.000,00000000,eb16,6988;SOL_COMPUTED,PSRDIFF,30,T,4467786.4921,434255.7226,666.3400,52.1000,WGS84,3.1085,2.2996,5.4237,"0",228.200,0.000,17,13,0,0,0,08,0,01*ded7e611
75: 24.10.2014.19.2.43.911
#BESTVELA,COM1,0,56.5,FINESTEERING,1815,493268.200,00000000,827b,6988;SOL_COMPUTED,PSRDIFF,0.150,228.400,0.0217,329.366807,-0.0416,0.0*1b7b1b4d
76: 24.10.2014.19.2.43.991
#BESTUTMA,COM1,0,56.5,FINESTEERING,1815,493268.200,00000000,eb16,6988;SOL_COMPUTED,PSRDIFF,30,T,4467786.4943,434255.7143,666.3461,52.1000,WGS84,3.1128,2.3024,5.4319,"0",228.400,0.000,17,13,0,0,0,08,0,01*67d8cadd
77: 24.10.2014.19.2.44.103
#BESTVELA,COM1,0,56.5,FINESTEERING,1815,493268.400,00000000,827b,6988;SOL_COMPUTED,PSRDIFF,0.150,228.600,0.0060,266.703905,-0.0227,0.0*68789264
78: 24.10.2014.19.2.44.198
#BESTUTMA,COM1,0,56.5,FINESTEERING,1815,493268.400,00000000,eb16,6988;SOL_COMPUTED,PSRDIFF,30,T,4467786.4968,434255.7081,666.3562,52.1000,WGS84,3.1173,2.3057,5.4403,"0",228.600,0.000,17,13,0,0,0,08,0,01*d285241e
79: 24.10.2014.19.2.44.310
#BESTVELA,COM1,0,56.5,FINESTEERING,1815,493268.600,00000000,827b,6988;SOL_COMPUTED,PSRDIFF,0.150,228.800,0.0185,89.304194,-0.0101,0.0*c400ae70
80: 24.10.2014.19.2.44.405
#BESTUTMA,COM1,0,56.5,FINESTEERING,1815,493268.600,00000000,eb16,6988;SOL_COMPUTED,PSRDIFF,30,T,4467786.4820,434255.7118,666.3576,52.1000,WGS84,3.1231,2.3110,5.4488,"0",228.800,0.000,17,13,0,0,0,08,0,01*1d7d7fe1
81: 24.10.2014.19.2.44.501
#BESTVELA,COM1,0,56.5,FINESTEERING,1815,493268.800,00000000,827b,6988;SOL_COMPUTED,PSRDIFF,0.150,229.000,0.0263,280.918744,0.0206,0.0*4e6e52b4
82: 24.10.2014.19.2.44.597
#BESTUTMA,COM1,0,56.5,FINESTEERING,1815,493268.800,00000000,eb16,6988;SOL_COMPUTED,PSRDIFF,30,T,4467786.4845,434255.6870,666.3792,52.1000,WGS84,3.1265,2.3124,5.4570,"0",229.000,0.000,16,13,0,0,0,08,0,01*c6e4220f
83: 24.10.2014.19.2.44.708
#BESTVELA,COM1,0,56.5,FINESTEERING,1815,493269.000,00000000,827b,6988;SOL_COMPUTED,PSRDIFF,0.150,229.200,0.0045,252.557850,0.0119,0.0*acdae6b4
84: 24.10.2014.19.2.44.804
#BESTUTMA,COM1,0,56.5,FINESTEERING,1815,493269.000,00000000,eb16,6988;SOL_COMPUTED,PSRDIFF,30,T,4467786.2351,434255.9516,666.2701,52.1000,WGS84,3.1610,2.3672,5.4692,"0",229.200,0.000,15,12,0,0,0,08,0,01*0de7cf8e
85: 24.10.2014.19.2.44.916
#BESTVELA,COM1,0,57.5,FINESTEERING,1815,493269.200,00000000,827b,6988;SOL_COMPUTED,PSRDIFF,0.150,229.400,0.0067,112.795823,-0.0011,0.0*8e3d6620
86: 24.10.2014.19.2.44.995
#BESTUTMA,COM1,0,57.5,FINESTEERING,1815,493269.200,00000000,eb16,6988;SOL_COMPUTED,PSRDIFF,30,T,4467786.2333,434255.9501,666.2688,52.1000,WGS84,3.1659,2.3708,5.4778,"0",229.400,0.000,16,12,0,0,0,08,0,01*22be50f8
87: 24.10.2014.19.2.45.107
#BESTVELA,COM1,0,57.5,FINESTEERING,1815,493269.400,00000000,827b,6988;SOL_COMPUTED,PSRDIFF,0.150,229.600,0.0633,324.283527,0.0173,0.0*4c13e940
88: 24.10.2014.19.2.45.203
#BESTUTMA,COM1,0,57.5,FINESTEERING,1815,493269.400,00000000,eb16,6988;SOL_COMPUTED,PSRDIFF,30,T,4467786.4416,434255.7090,666.3800,52.1000,WGS84,3.1419,2.3252,5.4824,"0",229.600,0.000,17,13,0,0,0,08,0,01*a05c60fc
89: 24.10.2014.19.2.45.314
#BESTVELA,COM1,0,57.5,FINESTEERING,1815,493269.600,00000000,827b,6988;SOL_COMPUTED,PSRDIFF,0.150,229.800,0.0122,294.632389,0.0071,0.0*16ccb2c3
90: 24.10.2014.19.2.45.394
#BESTUTMA,COM1,0,57.5,FINESTEERING,1815,493269.600,00000000,eb16,6988;SOL_COMPUTED,PSRDIFF,30,T,4467786.4379,434255.6913,666.3979,52.1000,WGS84,3.1456,2.3269,5.4907,"0",229.800,0.000,18,13,0,0,0,08,0,01*c24b5be2
91: 24.10.2014.19.2.45.506
#BESTVELA,COM1,0,57.5,FINESTEERING,1815,493269.800,00000000,827b,6988;SOL_COMPUTED,PSRDIFF,0.150,230.000,0.0099,68.615102,0.0179,0.0*692b731d
92: 24.10.2014.19.2.45.602
#BESTUTMA,COM1,0,57.5,FINESTEERING,1815,493269.800,00000000,eb16,6988;SOL_COMPUTED,PSRDIFF,30,T,4467786.2092,434255.9299,666.2966,52.1000,WGS84,3.1802,2.3816,5.5030,"0",230.000,0.000,17,12,0,0,0,08,0,01*064ae741
93: 24.10.2014.19.2.45.713
#BESTVELA,COM1,0,57.5,FINESTEERING,1815,493270.000,00000000,827b,6988;SOL_COMPUTED,PSRDIFF,0.150,230.200,0.0208,141.460408,0.0184,0.0*1f0d901d
94: 24.10.2014.19.2.45.793
#BESTUTMA,COM1,0,57.5,FINESTEERING,1815,493270.000,00000000,eb16,6988;SOL_COMPUTED,PSRDIFF,30,T,4467786.4454,434255.6705,666.3973,52.1000,WGS84,3.1546,2.3330,5.5075,"0",230.200,0.000,18,13,0,0,0,08,0,01*91f910e9
95: 24.10.2014.19.2.45.905
#BESTVELA,COM1,0,58.5,FINESTEERING,1815,493270.200,00000000,827b,6988;SOL_COMPUTED,PSRDIFF,0.150,230.400,0.0168,0.366735,0.0078,0.0*cd0b20ff
96: 24.10.2014.19.2.46.0
#BESTUTMA,COM1,0,58.5,FINESTEERING,1815,493270.200,00000000,eb16,6988;SOL_COMPUTED,PSRDIFF,30,T,4467786.2095,434255.9290,666.2882,52.1000,WGS84,3.1897,2.3887,5.5199,"0",230.400,0.000,16,12,0,0,0,08,0,01*25921ea1
97: 24.10.2014.19.2.46.112
#BESTVELA,COM1,0,58.5,FINESTEERING,1815,493270.400,00000000,827b,6988;SOL_COMPUTED,PSRDIFF,0.150,230.600,0.0313,344.766358,0.0166,0.0*cf0a1b51
98: 24.10.2014.19.2.46.191
#BESTUTMA,COM1,0,58.5,FINESTEERING,1815,493270.400,00000000,eb16,6988;SOL_COMPUTED,PSRDIFF,30,T,4467786.4302,434255.6832,666.3915,52.1000,WGS84,3.1647,2.3413,5.5245,"0",230.600,0.000,18,13,0,0,0,08,0,01*a76ec278
99: 24.10.2014.19.2.46.303
#BESTVELA,COM1,0,58.5,FINESTEERING,1815,493270.600,00000000,827b,6988;SOL_COMPUTED,PSRDIFF,0.150,230.800,0.0149,82.098559,-0.0297,0.0*bcd97158
100: 24.10.2014.19.2.46.399
#BESTUTMA,COM1,0,58.5,FINESTEERING,1815,493270.600,00000000,eb16,6988;SOL_COMPUTED,PSRDIFF,30,T,4467786.4379,434255.6775,666.3802,52.1000,WGS84,3.1683,2.3429,5.5327,"0",230.800,0.000,17,13,0,0,0,08,0,01*5d3e2f65
101: 24.10.2014.19.2.46.510
#BESTVELA,COM1,0,58.5,FINESTEERING,1815,493270.800,00000000,827b,6988;SOL_COMPUTED,PSRDIFF,0.150,231.000,0.0540,177.086216,0.0113,0.0*d75711ce
102: 24.10.2014.19.2.46.590
#BESTUTMA,COM1,0,58.5,FINESTEERING,1815,493270.800,00000000,eb16,6988;SOL_COMPUTED,PSRDIFF,30,T,4467786.4351,434255.6760,666.3829,52.1000,WGS84,3.1731,2.3464,5.5412,"0",231.000,0.000,17,13,0,0,0,08,0,01*3bfd531d
103: 24.10.2014.19.2.46.702
#BESTVELA,COM1,0,58.5,FINESTEERING,1815,493271.000,00000000,827b,6988;SOL_COMPUTED,PSRDIFF,0.150,231.200,0.0433,225.667809,0.0187,0.0*e171e971
104: 24.10.2014.19.2.46.797
#BESTUTMA,COM1,0,58.5,FINESTEERING,1815,493271.000,00000000,eb16,6988;SOL_COMPUTED,PSRDIFF,30,T,4467786.2153,434255.9175,666.2812,52.1000,WGS84,3.2088,2.4031,5.5537,"0",231.200,0.000,16,12,0,0,0,08,0,01*426d3778
105: 24.10.2014.19.2.46.909
#BESTVELA,COM1,0,59.0,FINESTEERING,1815,493271.200,00000000,827b,6988;SOL_COMPUTED,PSRDIFF,0.150,231.400,0.0407,174.888564,0.0293,0.0*6b352f4f
106: 24.10.2014.19.2.47.4
#BESTUTMA,COM1,0,59.0,FINESTEERING,1815,493271.200,00000000,eb16,6988;SOL_COMPUTED,PSRDIFF,30,T,4467786.4062,434255.6998,666.3777,52.1000,WGS84,3.1827,2.3537,5.5582,"0",231.400,0.000,17,13,0,0,0,08,0,01*6b310c32
107: 24.10.2014.19.2.47.116
#BESTVELA,COM1,0,59.0,FINESTEERING,1815,493271.400,00000000,827b,6988;SOL_COMPUTED,PSRDIFF,0.150,231.600,0.0364,343.409527,0.0098,0.0*bbe96735
108: 24.10.2014.19.2.47.196
#BESTUTMA,COM1,0,59.0,FINESTEERING,1815,493271.400,00000000,eb16,6988;SOL_COMPUTED,PSRDIFF,30,T,4467786.4097,434255.6829,666.3870,52.1000,WGS84,3.1881,2.3581,5.5669,"0",231.600,0.000,16,13,0,0,0,08,0,01*3015672c
109: 24.10.2014.19.2.47.307
#BESTVELA,COM1,0,59.0,FINESTEERING,1815,493271.600,00000000,827b,6988;SOL_COMPUTED,PSRDIFF,0.150,231.800,0.0572,298.925108,0.0144,0.0*7f753cf0
110: 24.10.2014.19.2.47.403
#BESTUTMA,COM1,0,59.0,FINESTEERING,1815,493271.600,00000000,eb16,6988;SOL_COMPUTED,PSRDIFF,30,T,4467786.4053,434255.6828,666.3910,52.1000,WGS84,3.1928,2.3616,5.5754,"0",231.800,0.000,16,13,0,0,0,08,0,01*3b37eaef
111: 24.10.2014.19.2.47.515
#BESTVELA,COM1,0,59.0,FINESTEERING,1815,493271.800,00000000,827b,6988;SOL_COMPUTED,PSRDIFF,0.150,232.000,0.0168,156.030118,-0.0393,0.0*f53c5abf
112: 24.10.2014.19.2.47.595
#BESTUTMA,COM1,0,59.0,FINESTEERING,1815,493271.800,00000000,eb16,6988;SOL_COMPUTED,PSRDIFF,30,T,4467786.2067,434255.9057,666.2920,52.1000,WGS84,3.2281,2.4176,5.5878,"0",232.000,0.000,16,12,0,0,0,08,0,01*1078e742
113: 24.10.2014.19.2.47.706
#BESTVELA,COM1,0,59.0,FINESTEERING,1815,493272.000,00000000,827b,6988;SOL_COMPUTED,PSRDIFF,0.150,232.200,0.0062,78.172087,-0.0100,0.0*b8251676
114: 24.10.2014.19.2.47.802
#BESTUTMA,COM1,0,59.0,FINESTEERING,1815,493272.000,00000000,eb16,6988;SOL_COMPUTED,PSRDIFF,30,T,4467786.3999,434255.6953,666.3745,52.1000,WGS84,3.2023,2.3687,5.5923,"0",232.200,0.000,17,13,0,0,0,08,0,01*7f42ce6b
115: 24.10.2014.19.2.47.914
#BESTVELA,COM1,0,59.5,FINESTEERING,1815,493272.200,00000000,827b,6988;SOL_COMPUTED,PSRDIFF,0.150,232.400,0.0577,63.219279,-0.0846,0.0*66a8be30
116: 24.10.2014.19.2.47.993
#BESTUTMA,COM1,0,59.5,FINESTEERING,1815,493272.200,00000000,eb16,6988;SOL_COMPUTED,PSRDIFF,30,T,4467786.3956,434255.6862,666.3897,52.1000,WGS84,3.2070,2.3721,5.6008,"0",232.400,0.000,18,13,0,0,0,08,0,01*f0a7e118
117: 24.10.2014.19.2.48.105
#BESTVELA,COM1,0,59.5,FINESTEERING,1815,493272.400,00000000,827b,6988;SOL_COMPUTED,PSRDIFF,0.150,232.600,0.0184,250.776914,-0.0140,0.0*be412181
118: 24.10.2014.19.2.48.201
#BESTUTMA,COM1,0,59.5,FINESTEERING,1815,493272.400,00000000,eb16,6988;SOL_COMPUTED,PSRDIFF,30,T,4467786.3946,434255.6782,666.3961,52.1000,WGS84,3.2116,2.3753,5.6094,"0",232.600,0.000,18,13,0,0,0,08,0,01*648426d4
119: 24.10.2014.19.2.48.313
#BESTVELA,COM1,0,59.5,FINESTEERING,1815,493272.600,00000000,827b,6988;SOL_COMPUTED,PSRDIFF,0.150,232.800,0.0342,161.938784,-0.0124,0.0*9b9b0948
120: 24.10.2014.19.2.48.392
#BESTUTMA,COM1,0,59.5,FINESTEERING,1815,493272.600,00000000,eb16,6988;SOL_COMPUTED,PSRDIFF,30,T,4467786.3830,434255.6923,666.3905,52.1000,WGS84,3.2163,2.3788,5.6179,"0",232.800,0.000,18,13,0,0,0,08,0,01*f211f837
121: 24.10.2014.19.2.48.504
#BESTVELA,COM1,0,59.5,FINESTEERING,1815,493272.800,00000000,827b,6988;SOL_COMPUTED,PSRDIFF,0.150,233.000,0.0267,158.183106,0.0375,0.0*411d0b98
122: 24.10.2014.19.2.48.600
#BESTUTMA,COM1,0,59.5,FINESTEERING,1815,493272.800,00000000,eb16,6988;SOL_COMPUTED,PSRDIFF,30,T,4467786.3707,434255.6965,666.3986,52.1000,WGS84,3.2211,2.3824,5.6264,"0",233.000,0.000,17,13,0,0,0,08,0,01*2dc5b15c
123: 24.10.2014.19.2.48.711
#BESTVELA,COM1,0,58.0,FINESTEERING,1815,493273.000,00000000,827b,6988;SOL_COMPUTED,PSRDIFF,0.150,233.200,0.0122,333.364216,-0.0066,0.0*dba9bb85
124: 24.10.2014.19.2.48.791
#BESTUTMA,COM1,0,58.0,FINESTEERING,1815,493273.000,00000000,eb16,6988;SOL_COMPUTED,PSRDIFF,30,T,4467786.3809,434255.6901,666.3924,52.1000,WGS84,3.2259,2.3860,5.6349,"0",233.200,0.000,18,13,0,0,0,08,0,01*c7392e85
125: 24.10.2014.19.2.48.903
#BESTVELA,COM1,0,58.0,FINESTEERING,1815,493273.200,00000000,827b,6988;SOL_COMPUTED,PSRDIFF,0.150,233.400,0.0300,30.283062,-0.0476,0.0*5ce2025b
126: 24.10.2014.19.2.48.999
#BESTUTMA,COM1,0,58.0,FINESTEERING,1815,493273.200,00000000,eb16,6988;SOL_COMPUTED,PSRDIFF,30,T,4467786.3888,434255.6853,666.3947,52.1000,WGS84,3.2306,2.3893,5.6435,"0",233.400,0.000,17,13,0,0,0,08,0,01*77ba1f88
127: 24.10.2014.19.2.49.110
#BESTVELA,COM1,0,58.0,FINESTEERING,1815,493273.400,00000000,827b,6988;SOL_COMPUTED,PSRDIFF,0.150,233.600,0.0132,27.075269,0.0009,0.0*ccb029ba
128: 24.10.2014.19.2.49.190
#BESTUTMA,COM1,0,58.0,FINESTEERING,1815,493273.400,00000000,eb16,6988;SOL_COMPUTED,PSRDIFF,30,T,4467786.3983,434255.6751,666.3994,52.1000,WGS84,3.2354,2.3928,5.6521,"0",233.600,0.000,17,13,0,0,0,08,0,01*b343d1a5
129: 24.10.2014.19.2.49.302
#BESTVELA,COM1,0,58.0,FINESTEERING,1815,493273.600,00000000,827b,6988;SOL_COMPUTED,PSRDIFF,0.150,233.800,0.0179,129.109599,-0.0431,0.0*80df0838
130: 24.10.2014.19.2.49.398
#BESTUTMA,COM1,0,58.0,FINESTEERING,1815,493273.600,00000000,eb16,6988;SOL_COMPUTED,PSRDIFF,30,T,4467786.3973,434255.6781,666.3849,52.1000,WGS84,3.2405,2.3970,5.6607,"0",233.800,0.000,17,13,0,0,0,08,0,01*1b09b7d1
131: 24.10.2014.19.2.49.509
#BESTVELA,COM1,0,58.0,FINESTEERING,1815,493273.800,00000000,827b,6988;SOL_COMPUTED,PSRDIFF,0.150,234.000,0.0095,226.175503,0.0027,0.0*0ee3ceae
132: 24.10.2014.19.2.49.589
#BESTUTMA,COM1,0,58.0,FINESTEERING,1815,493273.800,00000000,eb16,6988;SOL_COMPUTED,PSRDIFF,30,T,4467786.3912,434255.6733,666.3933,52.1000,WGS84,3.2455,2.4006,5.6694,"0",234.000,0.000,17,13,0,0,0,08,0,01*79ef4669
133: 24.10.2014.19.2.49.701
#BESTVELA,COM1,0,58.0,FINESTEERING,1815,493274.000,00000000,827b,6988;SOL_COMPUTED,PSRDIFF,0.150,234.200,0.0332,222.339889,0.0146,0.0*eaf89727
134: 24.10.2014.19.2.49.796
#BESTUTMA,COM1,0,58.0,FINESTEERING,1815,493274.000,00000000,eb16,6988;SOL_COMPUTED,PSRDIFF,30,T,4467786.3910,434255.6693,666.4052,52.1000,WGS84,3.2502,2.4042,5.6779,"0",234.200,0.000,16,13,0,0,0,08,0,01*0b9aea9e
135: 24.10.2014.19.2.49.908
#BESTVELA,COM1,0,55.5,FINESTEERING,1815,493274.200,00000000,827b,6988;SOL_COMPUTED,PSRDIFF,0.150,234.400,0.0484,20.037644,0.0122,0.0*d329522f
136: 24.10.2014.19.2.50.4
#BESTUTMA,COM1,0,55.5,FINESTEERING,1815,493274.200,00000000,eb16,6988;SOL_COMPUTED,PSRDIFF,30,T,4467786.3958,434255.6603,666.4144,52.1000,WGS84,3.2546,2.4070,5.6864,"0",234.400,0.000,16,13,0,0,0,08,0,01*03bd1b53
137: 24.10.2014.19.2.50.100
#BESTVELA,COM1,0,55.5,FINESTEERING,1815,493274.400,00000000,827b,6988;SOL_COMPUTED,PSRDIFF,0.150,234.600,0.0317,6.294993,0.0149,0.0*8f3f7988
138: 24.10.2014.19.2.50.195
#BESTUTMA,COM1,0,55.5,FINESTEERING,1815,493274.400,00000000,eb16,6988;SOL_COMPUTED,PSRDIFF,30,T,4467786.3902,434255.6659,666.4176,52.1000,WGS84,3.2601,2.4119,5.6951,"0",234.600,0.000,17,13,0,0,0,08,0,01*71503d45
139: 24.10.2014.19.2.50.307
#BESTVELA,COM1,0,55.5,FINESTEERING,1815,493274.600,00000000,827b,6988;SOL_COMPUTED,PSRDIFF,0.150,234.800,0.0348,223.656441,0.0400,0.0*33350a81
140: 24.10.2014.19.2.50.403
#BESTUTMA,COM1,0,55.5,FINESTEERING,1815,493274.600,00000000,eb16,6988;SOL_COMPUTED,PSRDIFF,30,T,4467786.1881,434255.8700,666.3450,52.1000,WGS84,3.2959,2.4686,5.7076,"0",234.800,0.000,16,12,0,0,0,08,0,01*f4fd2841
141: 24.10.2014.19.2.50.515
#BESTVELA,COM1,0,55.5,FINESTEERING,1815,493274.800,00000000,827b,6988;SOL_COMPUTED,PSRDIFF,0.150,235.000,0.0357,181.327736,-0.0149,0.0*cc3cf05c
142: 24.10.2014.19.2.50.594
#BESTUTMA,COM1,0,55.5,FINESTEERING,1815,493274.800,00000000,eb16,6988;SOL_COMPUTED,PSRDIFF,30,T,4467786.3598,434255.6659,666.4366,52.1000,WGS84,3.2704,2.4202,5.7123,"0",235.000,0.000,18,13,0,0,0,08,0,01*bb0ca5fc
143: 24.10.2014.19.2.50.706
#BESTVELA,COM1,0,55.5,FINESTEERING,1815,493275.000,00000000,827b,6988;SOL_COMPUTED,PSRDIFF,0.150,235.200,0.0197,21.707469,0.0209,0.0*f9883bce
144: 24.10.2014.19.2.50.802
#BESTUTMA,COM1,0,55.5,FINESTEERING,1815,493275.000,00000000,eb16,6988;SOL_COMPUTED,PSRDIFF,30,T,4467786.1836,434255.8662,666.3452,52.1000,WGS84,3.3057,2.4760,5.7249,"0",235.200,0.000,17,12,0,0,0,08,0,01*c29cbf56
145: 24.10.2014.19.2.50.913
#BESTVELA,COM1,0,55.5,FINESTEERING,1815,493275.200,00000000,827b,6988;SOL_COMPUTED,PSRDIFF,0.150,235.400,0.0090,73.604018,-0.0357,0.0*6ec64c48
146: 24.10.2014.19.2.50.993
#BESTUTMA,COM1,0,55.5,FINESTEERING,1815,493275.200,00000000,eb16,6988;SOL_COMPUTED,PSRDIFF,30,T,4467786.1906,434255.8657,666.3355,52.1000,WGS84,3.3108,2.4797,5.7338,"0",235.400,0.000,17,12,0,0,0,08,0,01*a1df25d0
147: 24.10.2014.19.2.51.105
#BESTVELA,COM1,0,59.5,FINESTEERING,1815,493275.400,00000000,827b,6988;SOL_COMPUTED,PSRDIFF,0.150,235.600,0.0419,356.043583,-0.0292,0.0*1e6bc1c9
148: 24.10.2014.19.2.51.201
#BESTUTMA,COM1,0,59.5,FINESTEERING,1815,493275.400,00000000,eb16,6988;SOL_COMPUTED,PSRDIFF,30,T,4467786.2022,434255.8692,666.3262,52.1000,WGS84,3.3157,2.4834,5.7424,"0",235.600,0.000,16,12,0,0,0,08,0,01*38915f63
149: 24.10.2014.19.2.51.312
#BESTVELA,COM1,0,59.5,FINESTEERING,1815,493275.600,00000000,827b,6988;SOL_COMPUTED,PSRDIFF,0.150,235.800,0.0377,356.632155,-0.0099,0.0*68a89e7f
150: 24.10.2014.19.2.51.392
#BESTUTMA,COM1,0,59.5,FINESTEERING,1815,493275.600,00000000,eb16,6988;SOL_COMPUTED,PSRDIFF,30,T,4467786.1877,434255.8585,666.3401,52.1000,WGS84,3.3205,2.4871,5.7510,"0",235.800,0.000,17,12,0,0,0,08,0,01*b9c303f4
151: 24.10.2014.19.2.51.504
#BESTVELA,COM1,0,59.5,FINESTEERING,1815,493275.800,00000000,827b,6988;SOL_COMPUTED,PSRDIFF,0.150,236.000,0.0060,108.408488,0.0105,0.0*a2aa1426
152: 24.10.2014.19.2.51.599
#BESTUTMA,COM1,0,59.5,FINESTEERING,1815,493275.800,00000000,eb16,6988;SOL_COMPUTED,PSRDIFF,30,T,4467786.1827,434255.8575,666.3438,52.1000,WGS84,3.3254,2.4907,5.7596,"0",236.000,0.000,16,12,0,0,0,08,0,01*05de7cb7
153: 24.10.2014.19.2.51.711
#BESTVELA,COM1,0,59.5,FINESTEERING,1815,493276.000,00000000,827b,6988;SOL_COMPUTED,PSRDIFF,0.150,236.200,0.0135,121.977002,0.0536,0.0*89818c2e
154: 24.10.2014.19.2.51.791
#BESTUTMA,COM1,0,59.5,FINESTEERING,1815,493276.000,00000000,eb16,6988;SOL_COMPUTED,PSRDIFF,30,T,4467786.1818,434255.8581,666.3441,52.1000,WGS84,3.3303,2.4944,5.7683,"0",236.200,0.000,16,12,0,0,0,08,0,01*f767939b
155: 24.10.2014.19.2.51.903
#BESTVELA,COM1,0,57.5,FINESTEERING,1815,493276.200,00000000,827b,6988;SOL_COMPUTED,PSRDIFF,0.150,236.400,0.0341,221.246893,0.0240,0.0*8df408f5
156: 24.10.2014.19.2.51.998
#BESTUTMA,COM1,0,57.5,FINESTEERING,1815,493276.200,00000000,eb16,6988;SOL_COMPUTED,PSRDIFF,30,T,4467786.1728,434255.8532,666.3506,52.1000,WGS84,3.3351,2.4981,5.7769,"0",236.400,0.000,16,12,0,0,0,08,0,01*e175df51
157: 24.10.2014.19.2.52.110
#BESTVELA,COM1,0,57.5,FINESTEERING,1815,493276.400,00000000,827b,6988;SOL_COMPUTED,PSRDIFF,0.150,236.600,0.0372,25.451165,-0.0167,0.0*1ec62e3c
158: 24.10.2014.19.2.52.190
#BESTUTMA,COM1,0,57.5,FINESTEERING,1815,493276.400,00000000,eb16,6988;SOL_COMPUTED,PSRDIFF,30,T,4467786.1697,434255.8516,666.3524,52.1000,WGS84,3.3400,2.5018,5.7854,"0",236.600,0.000,16,12,0,0,0,08,0,01*b7e00c64
159: 24.10.2014.19.2.52.302
#BESTVELA,COM1,0,57.5,FINESTEERING,1815,493276.600,00000000,827b,6988;SOL_COMPUTED,PSRDIFF,0.150,236.800,0.0431,207.337801,-0.0159,0.0*57fca84a
160: 24.10.2014.19.2.52.397
#BESTUTMA,COM1,0,57.5,FINESTEERING,1815,493276.600,00000000,eb16,6988;SOL_COMPUTED,PSRDIFF,30,T,4467786.1717,434255.8469,666.3490,52.1000,WGS84,3.3449,2.5055,5.7941,"0",236.800,0.000,15,12,0,0,0,08,0,01*6925858d
161: 24.10.2014.19.2.52.509
#BESTVELA,COM1,0,57.5,FINESTEERING,1815,493276.800,00000000,827b,6988;SOL_COMPUTED,PSRDIFF,0.150,237.000,0.0149,330.543241,0.0023,0.0*e9b1940f
162: 24.10.2014.19.2.52.589
#BESTUTMA,COM1,0,57.5,FINESTEERING,1815,493276.800,00000000,eb16,6988;SOL_COMPUTED,PSRDIFF,30,T,4467786.1629,434255.8435,666.3653,52.1000,WGS84,3.3498,2.5092,5.8028,"0",237.000,0.000,15,12,0,0,0,08,0,01*571a36cd
163: 24.10.2014.19.2.52.700
#BESTVELA,COM1,0,57.5,FINESTEERING,1815,493277.000,00000000,827b,6988;SOL_COMPUTED,PSRDIFF,0.150,237.200,0.0194,283.399473,0.0065,0.0*53e3802b
164: 24.10.2014.19.2.52.796
#BESTUTMA,COM1,0,57.5,FINESTEERING,1815,493277.000,00000000,eb16,6988;SOL_COMPUTED,PSRDIFF,30,T,4467786.1596,434255.8412,666.3674,52.1000,WGS84,3.3547,2.5129,5.8115,"0",237.200,0.000,16,12,0,0,0,08,0,01*674239a5
165: 24.10.2014.19.2.52.908
#BESTVELA,COM1,0,52.0,FINESTEERING,1815,493277.200,00000000,827b,6988;SOL_COMPUTED,PSRDIFF,0.150,237.400,0.0327,188.152440,0.0032,0.0*5a3daa2a
166: 24.10.2014.19.2.53.4
#BESTUTMA,COM1,0,52.0,FINESTEERING,1815,493277.200,00000000,eb16,6988;SOL_COMPUTED,PSRDIFF,30,T,4467786.1570,434255.8414,666.3679,52.1000,WGS84,3.3597,2.5166,5.8202,"0",237.400,0.000,16,12,0,0,0,08,0,01*ed846952
167: 24.10.2014.19.2.53.115
#BESTVELA,COM1,0,52.0,FINESTEERING,1815,493277.400,00000000,827b,6988;SOL_COMPUTED,PSRDIFF,0.150,237.600,0.0113,179.217074,0.0068,0.0*e1ca206e
168: 24.10.2014.19.2.53.195
#BESTUTMA,COM1,0,52.0,FINESTEERING,1815,493277.400,00000000,eb16,6988;SOL_COMPUTED,PSRDIFF,30,T,4467786.1483,434255.8339,666.3769,52.1000,WGS84,3.3646,2.5203,5.8289,"0",237.600,0.000,17,12,0,0,0,08,0,01*fda4ccec
169: 24.10.2014.19.2.53.307
#BESTVELA,COM1,0,52.0,FINESTEERING,1815,493277.600,00000000,827b,6988;SOL_COMPUTED,PSRDIFF,0.150,237.800,0.0238,124.985060,-0.0097,0.0*1cd915f8
170: 24.10.2014.19.2.53.403
#BESTUTMA,COM1,0,52.0,FINESTEERING,1815,493277.600,00000000,eb16,6988;SOL_COMPUTED,PSRDIFF,30,T,4467786.1440,434255.8311,666.3788,52.1000,WGS84,3.3694,2.5240,5.8375,"0",237.800,0.000,17,12,0,0,0,08,0,01*f06d5692
171: 24.10.2014.19.2.53.514
#BESTVELA,COM1,0,52.0,FINESTEERING,1815,493277.800,00000000,827b,6988;SOL_COMPUTED,PSRDIFF,0.150,238.000,0.0252,177.673153,0.0062,0.0*9bd6108a
172: 24.10.2014.19.2.53.594
#BESTUTMA,COM1,0,52.0,FINESTEERING,1815,493277.800,00000000,eb16,6988;SOL_COMPUTED,PSRDIFF,30,T,4467786.1359,434255.8211,666.3933,52.1000,WGS84,3.3743,2.5277,5.8462,"0",238.000,0.000,17,12,0,0,0,08,0,01*be4fbb3b
173: 24.10.2014.19.2.53.706
#BESTVELA,COM1,0,52.0,FINESTEERING,1815,493278.000,00000000,827b,6988;SOL_COMPUTED,PSRDIFF,0.150,238.200,0.0332,331.624563,-0.0434,0.0*7ed5139f
174: 24.10.2014.19.2.53.802
#BESTUTMA,COM1,0,52.0,FINESTEERING,1815,493278.000,00000000,eb16,6988;SOL_COMPUTED,PSRDIFF,30,T,4467786.1390,434255.8209,666.3896,52.1000,WGS84,3.3793,2.5314,5.8549,"0",238.200,0.000,16,12,0,0,0,08,0,01*4493993c
175: 24.10.2014.19.2.53.913
#BESTVELA,COM1,0,52.0,FINESTEERING,1815,493278.200,00000000,827b,6988;SOL_COMPUTED,PSRDIFF,0.150,238.400,0.0124,151.734317,-0.0172,0.0*3973bb7c
176: 24.10.2014.19.2.53.993
#BESTUTMA,COM1,0,52.0,FINESTEERING,1815,493278.200,00000000,eb16,6988;SOL_COMPUTED,PSRDIFF,30,T,4467786.1342,434255.8207,666.3864,52.1000,WGS84,3.3842,2.5351,5.8637,"0",238.400,0.000,17,12,0,0,0,08,0,01*8fbc1c33
177: 24.10.2014.19.2.54.105
#BESTVELA,COM1,0,57.5,FINESTEERING,1815,493278.400,00000000,827b,6988;SOL_COMPUTED,PSRDIFF,0.150,238.600,0.0139,225.852614,-0.0024,0.0*2053320e
178: 24.10.2014.19.2.54.200
#BESTUTMA,COM1,0,57.5,FINESTEERING,1815,493278.400,00000000,eb16,6988;SOL_COMPUTED,PSRDIFF,30,T,4467786.1238,434255.8146,666.4011,52.1000,WGS84,3.3892,2.5389,5.8725,"0",238.600,0.000,16,12,0,0,0,08,0,01*e5275aa0
179: 24.10.2014.19.2.54.312
#BESTVELA,COM1,0,57.5,FINESTEERING,1815,493278.600,00000000,827b,6988;SOL_COMPUTED,PSRDIFF,0.150,238.800,0.0530,18.929622,-0.0186,0.0*fc27bdb3
180: 24.10.2014.19.2.54.392
#BESTUTMA,COM1,0,57.5,FINESTEERING,1815,493278.600,00000000,eb16,6988;SOL_COMPUTED,PSRDIFF,30,T,4467786.1160,434255.8127,666.4027,52.1000,WGS84,3.3943,2.5426,5.8814,"0",238.800,0.000,16,12,0,0,0,08,0,01*a3300e51
181: 24.10.2014.19.2.54.504
#BESTVELA,COM1,0,57.5,FINESTEERING,1815,493278.800,00000000,827b,6988;SOL_COMPUTED,PSRDIFF,0.150,239.000,0.0118,150.754090,-0.0309,0.0*7629e61c
182: 24.10.2014.19.2.54.599
#BESTUTMA,COM1,0,57.5,FINESTEERING,1815,493278.800,00000000,eb16,6988;SOL_COMPUTED,PSRDIFF,30,T,4467786.1043,434255.8062,666.4148,52.1000,WGS84,3.3993,2.5464,5.8902,"0",239.000,0.000,16,12,0,0,0,08,0,01*e2a4628e
183: 24.10.2014.19.2.54.711
#BESTVELA,COM1,0,57.5,FINESTEERING,1815,493279.000,00000000,827b,6988;SOL_COMPUTED,PSRDIFF,0.150,239.200,0.0096,177.612407,-0.0057,0.0*f46ff7cb
184: 24.10.2014.19.2.54.791
#BESTUTMA,COM1,0,57.5,FINESTEERING,1815,493279.000,00000000,eb16,6988;SOL_COMPUTED,PSRDIFF,30,T,4467786.0909,434255.8018,666.4328,52.1000,WGS84,3.4042,2.5501,5.8989,"0",239.200,0.000,16,12,0,0,0,08,0,01*9f21e550
185: 24.10.2014.19.2.54.903
#BESTVELA,COM1,0,53.5,FINESTEERING,1815,493279.200,00000000,827b,6988;SOL_COMPUTED,PSRDIFF,0.150,239.400,0.0157,323.597374,0.0151,0.0*74f25409
186: 24.10.2014.19.2.54.998
#BESTUTMA,COM1,0,53.5,FINESTEERING,1815,493279.200,00000000,eb16,6988;SOL_COMPUTED,PSRDIFF,30,T,4467786.0949,434255.7996,666.4302,52.1000,WGS84,3.4092,2.5539,5.9077,"0",239.400,0.000,15,12,0,0,0,08,0,01*e93394be
187: 24.10.2014.19.2.55.110
#BESTVELA,COM1,0,53.5,FINESTEERING,1815,493279.400,00000000,827b,6988;SOL_COMPUTED,PSRDIFF,0.150,239.600,0.0213,241.920517,0.0357,0.0*f5338723
188: 24.10.2014.19.2.55.190
#BESTUTMA,COM1,0,53.5,FINESTEERING,1815,493279.400,00000000,eb16,6988;SOL_COMPUTED,PSRDIFF,30,T,4467786.0959,434255.7985,666.4203,52.1000,WGS84,3.4141,2.5576,5.9164,"0",239.600,0.000,15,12,0,0,0,08,0,01*7769ec58
189: 24.10.2014.19.2.55.302
#BESTVELA,COM1,0,53.5,FINESTEERING,1815,493279.600,00000000,827b,6988;SOL_COMPUTED,PSRDIFF,0.150,239.800,0.0204,179.108041,-0.0135,0.0*5e0b7337
190: 24.10.2014.19.2.55.397
#BESTUTMA,COM1,0,53.5,FINESTEERING,1815,493279.600,00000000,eb16,6988;SOL_COMPUTED,PSRDIFF,30,T,4467786.0948,434255.7969,666.4126,52.1000,WGS84,3.4191,2.5614,5.9253,"0",239.800,0.000,16,12,0,0,0,08,0,01*c7e7a824
191: 24.10.2014.19.2.55.509
#BESTVELA,COM1,0,53.5,FINESTEERING,1815,493279.800,00000000,827b,6988;SOL_COMPUTED,PSRDIFF,0.150,240.000,0.0390,205.536363,0.0401,0.0*4ee114d5
192: 24.10.2014.19.2.55.589
#BESTUTMA,COM1,0,53.5,FINESTEERING,1815,493279.800,00000000,eb16,6988;SOL_COMPUTED,PSRDIFF,30,T,4467786.0964,434255.7932,666.4196,52.1000,WGS84,3.4241,2.5651,5.9341,"0",240.000,0.000,16,12,0,0,0,08,0,01*3191d0e0
193: 24.10.2014.19.2.55.700
#BESTVELA,COM1,0,53.5,FINESTEERING,1815,493280.000,00000000,827b,6988;SOL_COMPUTED,PSRDIFF,0.150,185.000,0.0129,108.841644,-0.0233,0.0*a5285916
194: 24.10.2014.19.2.55.796
#BESTUTMA,COM1,0,53.5,FINESTEERING,1815,493280.000,00000000,eb16,6988;SOL_COMPUTED,PSRDIFF,30,T,4467786.5395,434256.0882,666.9241,52.1000,WGS84,2.2258,1.6630,3.8079,"0",185.000,0.000,17,12,0,0,0,08,0,01*2a413dfa
195: 24.10.2014.19.2.55.908
#BESTVELA,COM1,0,53.5,FINESTEERING,1815,493280.200,00000000,827b,6988;SOL_COMPUTED,PSRDIFF,0.150,185.200,0.0304,6.076938,-0.0151,0.0*8748dcbe
196: 24.10.2014.19.2.56.4
#BESTUTMA,COM1,0,53.5,FINESTEERING,1815,493280.200,00000000,eb16,6988;SOL_COMPUTED,PSRDIFF,30,T,4467786.5397,434256.0873,666.9231,52.1000,WGS84,2.2294,1.6659,3.8145,"0",185.200,0.000,17,12,0,0,0,08,0,01*9a6ca184
197: 24.10.2014.19.2.56.99
#BESTVELA,COM1,0,53.5,FINESTEERING,1815,493280.400,00000000,827b,6988;SOL_COMPUTED,PSRDIFF,0.150,185.400,0.0090,34.530589,0.0079,0.0*db15fd2e
198: 24.10.2014.19.2.56.195
#BESTUTMA,COM1,0,53.5,FINESTEERING,1815,493280.400,00000000,eb16,6988;SOL_COMPUTED,PSRDIFF,30,T,4467786.5348,434256.0828,666.9211,52.1000,WGS84,2.2332,1.6687,3.8213,"0",185.400,0.000,17,12,0,0,0,08,0,01*b5e6a2d2
199: 24.10.2014.19.2.56.307
#BESTVELA,COM1,0,55.0,FINESTEERING,1815,493280.600,00000000,827b,6988;SOL_COMPUTED,PSRDIFF,0.150,185.600,0.0338,206.351333,0.0720,0.0*4cf6f19c
200: 24.10.2014.19.2.56.403
#BESTUTMA,COM1,0,55.0,FINESTEERING,1815,493280.600,00000000,eb16,6988;SOL_COMPUTED,PSRDIFF,30,T,4467786.5349,434256.0829,666.9183,52.1000,WGS84,2.2371,1.6716,3.8281,"0",185.600,0.000,16,12,0,0,0,08,0,01*116273f1
201: 24.10.2014.19.2.56.514
#BESTVELA,COM1,0,55.0,FINESTEERING,1815,493280.800,00000000,827b,6988;SOL_COMPUTED,PSRDIFF,0.150,185.800,0.0044,233.711762,-0.0185,0.0*167ad0ff
202: 24.10.2014.19.2.56.594
#BESTUTMA,COM1,0,55.0,FINESTEERING,1815,493280.800,00000000,eb16,6988;SOL_COMPUTED,PSRDIFF,30,T,4467786.5373,434256.0838,666.9074,52.1000,WGS84,2.2408,1.6744,3.8348,"0",185.800,0.000,17,12,0,0,0,08,0,01*2f9de38c
203: 24.10.2014.19.2.56.706
#BESTVELA,COM1,0,55.0,FINESTEERING,1815,493281.000,00000000,827b,6988;SOL_COMPUTED,PSRDIFF,0.150,186.000,0.0132,280.306430,-0.0421,0.0*10adc38e
204: 24.10.2014.19.2.56.801
#BESTUTMA,COM1,0,55.0,FINESTEERING,1815,493281.000,00000000,eb16,6988;SOL_COMPUTED,PSRDIFF,30,T,4467786.5316,434256.0808,666.9131,52.1000,WGS84,2.2446,1.6772,3.8416,"0",186.000,0.000,16,12,0,0,0,08,0,01*4300e850
205: 24.10.2014.19.2.56.913
#BESTVELA,COM1,0,55.0,FINESTEERING,1815,493281.200,00000000,827b,6988;SOL_COMPUTED,PSRDIFF,0.150,186.200,0.0066,100.691956,-0.0034,0.0*1a0b5924
206: 24.10.2014.19.2.56.993
#BESTUTMA,COM1,0,55.0,FINESTEERING,1815,493281.200,00000000,eb16,6988;SOL_COMPUTED,PSRDIFF,30,T,4467786.5280,434256.0780,666.9220,52.1000,WGS84,2.2484,1.6801,3.8483,"0",186.200,0.000,16,12,0,0,0,08,0,01*1cdf2a33
207: 24.10.2014.19.2.57.105
#BESTVELA,COM1,0,55.0,FINESTEERING,1815,493281.400,00000000,827b,6988;SOL_COMPUTED,PSRDIFF,0.150,161.800,0.0131,260.997623,-0.0044,0.0*28399321
208: 24.10.2014.19.2.57.200
#BESTUTMA,COM1,0,55.0,FINESTEERING,1815,493281.400,00000000,eb16,6988;SOL_COMPUTED,PSRDIFF,30,T,4467786.6624,434256.1740,667.2277,52.1000,WGS84,1.8231,1.3593,3.0833,"0",161.800,0.000,16,12,0,0,0,08,0,01*1d6b038a
209: 24.10.2014.19.2.57.312
#BESTVELA,COM1,0,56.0,FINESTEERING,1815,493281.600,00000000,827b,6988;SOL_COMPUTED,PSRDIFF,0.150,162.000,0.0301,170.631319,0.0364,0.0*1d01c7b3
210: 24.10.2014.19.2.57.392
#BESTUTMA,COM1,0,56.0,FINESTEERING,1815,493281.600,00000000,eb16,6988;SOL_COMPUTED,PSRDIFF,30,T,4467786.6653,434256.1728,667.2295,52.1000,WGS84,1.8263,1.3618,3.0892,"0",162.000,0.000,16,12,0,0,0,08,0,01*015043ed
211: 24.10.2014.19.2.57.504
#BESTVELA,COM1,0,56.0,FINESTEERING,1815,493281.800,00000000,827b,6988;SOL_COMPUTED,PSRDIFF,0.150,162.200,0.2014,129.628633,-0.1371,0.0*67c07597
212: 24.10.2014.19.2.57.599
#BESTUTMA,COM1,0,56.0,FINESTEERING,1815,493281.800,00000000,eb16,6988;SOL_COMPUTED,PSRDIFF,30,T,4467786.7143,434256.1187,667.2534,52.1000,WGS84,1.8285,1.3625,3.0947,"0",162.200,0.000,16,13,0,0,0,08,0,01*097a0776
213: 24.10.2014.19.2.57.711
#BESTVELA,COM1,0,56.0,FINESTEERING,1815,493282.000,00000000,827b,6988;SOL_COMPUTED,PSRDIFF,0.150,162.400,0.0076,342.822573,-0.0366,0.0*c76bd2bb
214: 24.10.2014.19.2.57.807
#BESTUTMA,COM1,0,56.0,FINESTEERING,1815,493282.000,00000000,eb16,6988;SOL_COMPUTED,PSRDIFF,30,T,4467786.6618,434256.1694,667.2270,52.1000,WGS84,1.8326,1.3666,3.1006,"0",162.400,0.000,15,12,0,0,0,08,0,01*19408d27
215: 24.10.2014.19.2.57.918
#BESTVELA,COM1,0,56.0,FINESTEERING,1815,493282.200,00000000,827b,6988;SOL_COMPUTED,PSRDIFF,0.150,162.600,0.0121,23.649277,-0.0340,0.0*0ce7c51f
216: 24.10.2014.19.2.57.998
#BESTUTMA,COM1,0,56.0,FINESTEERING,1815,493282.200,00000000,eb16,6988;SOL_COMPUTED,PSRDIFF,30,T,4467786.6557,434256.1613,667.2350,52.1000,WGS84,1.8357,1.3690,3.1064,"0",162.600,0.000,16,12,0,0,0,08,0,01*50cbcdcc
217: 24.10.2014.19.2.58.110
#BESTVELA,COM1,0,53.5,FINESTEERING,1815,493282.400,00000000,827b,6988;SOL_COMPUTED,PSRDIFF,0.150,162.800,0.0317,348.888740,-0.0717,0.0*c49472d1
218: 24.10.2014.19.2.58.190
#BESTUTMA,COM1,0,53.5,FINESTEERING,1815,493282.400,00000000,eb16,6988;SOL_COMPUTED,PSRDIFF,30,T,4467786.6531,434256.1562,667.2375,52.1000,WGS84,1.8391,1.3715,3.1124,"0",162.800,0.000,16,12,0,0,0,08,0,01*925aab97
219: 24.10.2014.19.2.58.301
#BESTVELA,COM1,0,53.5,FINESTEERING,1815,493282.600,00000000,827b,6988;SOL_COMPUTED,PSRDIFF,0.150,163.000,0.0242,227.845123,-0.0079,0.0*7c88b624
220: 24.10.2014.19.2.58.397
#BESTUTMA,COM1,0,53.5,FINESTEERING,1815,493282.600,00000000,eb16,6988;SOL_COMPUTED,PSRDIFF,30,T,4467786.6539,434256.1542,667.2382,52.1000,WGS84,1.8425,1.3740,3.1185,"0",163.000,0.000,17,12,0,0,0,08,0,01*10e4f14e
221: 24.10.2014.19.2.58.509
#BESTVELA,COM1,0,53.5,FINESTEERING,1815,493282.800,00000000,827b,6988;SOL_COMPUTED,PSRDIFF,0.150,163.200,0.0405,200.091149,0.0173,0.0*9d05a320
222: 24.10.2014.19.2.58.605
#BESTUTMA,COM1,0,53.5,FINESTEERING,1815,493282.800,00000000,eb16,6988;SOL_COMPUTED,PSRDIFF,30,T,4467786.6610,434256.1531,667.2278,52.1000,WGS84,1.8458,1.3764,3.1244,"0",163.200,0.000,17,12,0,0,0,08,0,01*816dc13e
223: 24.10.2014.19.2.58.700
#BESTVELA,COM1,0,53.5,FINESTEERING,1815,493283.000,00000000,827b,6988;SOL_COMPUTED,PSRDIFF,0.150,163.400,0.0361,225.795420,0.0248,0.0*d4d045a6
224: 24.10.2014.19.2.58.796
#BESTUTMA,COM1,0,53.5,FINESTEERING,1815,493283.000,00000000,eb16,6988;SOL_COMPUTED,PSRDIFF,30,T,4467786.6621,434256.1520,667.2188,52.1000,WGS84,1.8492,1.3789,3.1305,"0",163.400,0.000,17,12,0,0,0,08,0,01*06310d87
225: 24.10.2014.19.2.58.908
#BESTVELA,COM1,0,53.5,FINESTEERING,1815,493283.200,00000000,827b,6988;SOL_COMPUTED,PSRDIFF,0.150,163.600,0.0169,32.520964,-0.0484,0.0*531d74a8
226: 24.10.2014.19.2.59.4
#BESTUTMA,COM1,0,53.5,FINESTEERING,1815,493283.200,00000000,eb16,6988;SOL_COMPUTED,PSRDIFF,30,T,4467786.6645,434256.1520,667.2104,52.1000,WGS84,1.8525,1.3814,3.1364,"0",163.600,0.000,16,12,0,0,0,08,0,01*ab4a3694
227: 24.10.2014.19.2.59.115
#BESTVELA,COM1,0,53.5,FINESTEERING,1815,493283.400,00000000,827b,6988;SOL_COMPUTED,PSRDIFF,0.150,163.800,0.0196,5.428450,-0.0206,0.0*facd585f
228: 24.10.2014.19.2.59.195
#BESTUTMA,COM1,0,53.5,FINESTEERING,1815,493283.400,00000000,eb16,6988;SOL_COMPUTED,PSRDIFF,30,T,4467786.6676,434256.1509,667.2087,52.1000,WGS84,1.8562,1.3840,3.1429,"0",163.800,0.000,17,12,0,0,0,08,0,01*0f5d79af
229: 24.10.2014.19.2.59.307
#BESTVELA,COM1,0,53.5,FINESTEERING,1815,493283.600,00000000,827b,6988;SOL_COMPUTED,PSRDIFF,0.150,164.000,0.0179,354.120320,-0.0169,0.0*da3ba0c5
230: 24.10.2014.19.2.59.403
#BESTUTMA,COM1,0,53.5,FINESTEERING,1815,493283.600,00000000,eb16,6988;SOL_COMPUTED,PSRDIFF,30,T,4467786.6630,434256.1512,667.2055,52.1000,WGS84,1.8589,1.3863,3.1480,"0",164.000,0.000,16,12,0,0,0,08,0,01*5fc503f4
231: 24.10.2014.19.2.59.499
#BESTVELA,COM1,0,53.5,FINESTEERING,1815,493283.800,00000000,827b,6988;SOL_COMPUTED,PSRDIFF,0.150,164.200,0.0283,207.704334,-0.0136,0.0*2d4ec5c0
232: 24.10.2014.19.2.59.594
#BESTUTMA,COM1,0,53.5,FINESTEERING,1815,493283.800,00000000,eb16,6988;SOL_COMPUTED,PSRDIFF,30,T,4467786.6622,434256.1471,667.1979,52.1000,WGS84,1.8619,1.3887,3.1537,"0",164.200,0.000,16,12,0,0,0,08,0,01*d008f649
233: 24.10.2014.19.2.59.706
#BESTVELA,COM1,0,53.5,FINESTEERING,1815,493284.000,00000000,827b,6988;SOL_COMPUTED,PSRDIFF,0.150,164.400,0.0516,357.266314,-0.0770,0.0*627184db
234: 24.10.2014.19.2.59.802
#BESTUTMA,COM1,0,53.5,FINESTEERING,1815,493284.000,00000000,eb16,6988;SOL_COMPUTED,PSRDIFF,30,T,4467786.6610,434256.1425,667.2000,52.1000,WGS84,1.8652,1.3912,3.1596,"0",164.400,0.000,16,12,0,0,0,08,0,01*633ea2e0
235: 24.10.2014.19.2.59.913
#BESTVELA,COM1,0,53.5,FINESTEERING,1815,493284.200,00000000,827b,6988;SOL_COMPUTED,PSRDIFF,0.150,164.600,0.0484,4.389094,-0.0254,0.0*ea5a17ed
236: 24.10.2014.19.2.59.993
#BESTUTMA,COM1,0,53.5,FINESTEERING,1815,493284.200,00000000,eb16,6988;SOL_COMPUTED,PSRDIFF,30,T,4467786.6565,434256.1414,667.2096,52.1000,WGS84,1.8685,1.3936,3.1656,"0",164.600,0.000,16,12,0,0,0,08,0,01*d265d7f0
237: 24.10.2014.19.3.0.105
#BESTVELA,COM1,0,53.5,FINESTEERING,1815,493284.400,00000000,827b,6988;SOL_COMPUTED,PSRDIFF,0.150,164.800,0.0327,27.583472,-0.0364,0.0*16561d9c
238: 24.10.2014.19.3.0.201
#BESTUTMA,COM1,0,53.5,FINESTEERING,1815,493284.400,00000000,eb16,6988;SOL_COMPUTED,PSRDIFF,30,T,4467786.6586,434256.1396,667.2064,52.1000,WGS84,1.8718,1.3961,3.1716,"0",164.800,0.000,15,12,0,0,0,08,0,01*659916c1
239: 24.10.2014.19.3.0.312
#BESTVELA,COM1,0,54.0,FINESTEERING,1815,493284.600,00000000,827b,6988;SOL_COMPUTED,PSRDIFF,0.150,165.000,0.0321,214.644057,-0.0056,0.0*0e39157b
240: 24.10.2014.19.3.0.392
#BESTUTMA,COM1,0,54.0,FINESTEERING,1815,493284.600,00000000,eb16,6988;SOL_COMPUTED,PSRDIFF,30,T,4467786.6571,434256.1341,667.2080,52.1000,WGS84,1.8754,1.3987,3.1778,"0",165.000,0.000,15,12,0,0,0,08,0,01*64e2261f
241: 24.10.2014.19.3.0.504
#BESTVELA,COM1,0,54.0,FINESTEERING,1815,493284.800,00000000,827b,6988;SOL_COMPUTED,PSRDIFF,0.150,165.200,0.0616,201.466115,0.0308,0.0*4ea3ae1d
242: 24.10.2014.19.3.0.599
#BESTUTMA,COM1,0,54.0,FINESTEERING,1815,493284.800,00000000,eb16,6988;SOL_COMPUTED,PSRDIFF,30,T,4467786.6625,434256.1340,667.2034,52.1000,WGS84,1.8788,1.4012,3.1839,"0",165.200,0.000,16,12,0,0,0,08,0,01*2695319a
243: 24.10.2014.19.3.0.711
#BESTVELA,COM1,0,54.0,FINESTEERING,1815,493285.000,00000000,827b,6988;SOL_COMPUTED,PSRDIFF,0.150,165.400,0.0103,105.042188,-0.0175,0.0*ac7271a8
244: 24.10.2014.19.3.0.791
#BESTUTMA,COM1,0,54.0,FINESTEERING,1815,493285.000,00000000,eb16,6988;SOL_COMPUTED,PSRDIFF,30,T,4467786.6643,434256.1364,667.1965,52.1000,WGS84,1.8819,1.4036,3.1896,"0",165.400,0.000,16,12,0,0,0,08,0,01*e69884c3
245: 24.10.2014.19.3.0.904
#BESTVELA,COM1,0,54.0,FINESTEERING,1815,493285.200,00000000,827b,6988;SOL_COMPUTED,PSRDIFF,0.150,165.600,0.0242,201.773226,0.0158,0.0*24a2679c
246: 24.10.2014.19.3.1.0
#BESTUTMA,COM1,0,54.0,FINESTEERING,1815,493285.200,00000000,eb16,6988;SOL_COMPUTED,PSRDIFF,30,T,4467786.6588,434256.1325,667.2052,52.1000,WGS84,1.8852,1.4061,3.1956,"0",165.600,0.000,17,12,0,0,0,08,0,01*cdf857e9
247: 24.10.2014.19.3.1.111
#BESTVELA,COM1,0,54.0,FINESTEERING,1815,493285.400,00000000,827b,6988;SOL_COMPUTED,PSRDIFF,0.150,165.800,0.0221,173.540340,0.0180,0.0*fd2521fd
248: 24.10.2014.19.3.1.191
#BESTUTMA,COM1,0,54.0,FINESTEERING,1815,493285.400,00000000,eb16,6988;SOL_COMPUTED,PSRDIFF,30,T,4467786.6546,434256.1320,667.2079,52.1000,WGS84,1.8881,1.4085,3.2012,"0",165.800,0.000,17,12,0,0,0,08,0,01*c71f84a9
249: 24.10.2014.19.3.1.303
#BESTVELA,COM1,0,54.5,FINESTEERING,1815,493285.600,00000000,827b,6988;SOL_COMPUTED,PSRDIFF,0.150,166.000,0.0150,311.870200,-0.0167,0.0*08722cd8
250: 24.10.2014.19.3.1.398
#BESTUTMA,COM1,0,54.5,FINESTEERING,1815,493285.600,00000000,eb16,6988;SOL_COMPUTED,PSRDIFF,30,T,4467786.6530,434256.1320,667.2143,52.1000,WGS84,1.8913,1.4110,3.2070,"0",166.000,0.000,17,12,0,0,0,08,0,01*f6357105
251: 24.10.2014.19.3.1.510
#BESTVELA,COM1,0,54.5,FINESTEERING,1815,493285.800,00000000,827b,6988;SOL_COMPUTED,PSRDIFF,0.150,166.200,0.0089,87.700568,-0.0379,0.0*3d61a265
252: 24.10.2014.19.3.1.606
#BESTUTMA,COM1,0,54.5,FINESTEERING,1815,493285.800,00000000,eb16,6988;SOL_COMPUTED,PSRDIFF,30,T,4467786.6498,434256.1308,667.2212,52.1000,WGS84,1.8946,1.4135,3.2130,"0",166.200,0.000,16,12,0,0,0,08,0,01*567527f5
253: 24.10.2014.19.3.1.702
#BESTVELA,COM1,0,54.5,FINESTEERING,1815,493286.000,00000000,827b,6988;SOL_COMPUTED,PSRDIFF,0.150,166.400,0.0048,211.097974,0.0133,0.0*e8cb0ead
254: 24.10.2014.19.3.1.797
#BESTUTMA,COM1,0,54.5,FINESTEERING,1815,493286.000,00000000,eb16,6988;SOL_COMPUTED,PSRDIFF,30,T,4467786.6433,434256.1275,667.2242,52.1000,WGS84,1.8979,1.4159,3.2189,"0",166.400,0.000,17,12,0,0,0,08,0,01*62dc99fd
255: 24.10.2014.19.3.1.909
#BESTVELA,COM1,0,54.5,FINESTEERING,1815,493286.200,00000000,827b,6988;SOL_COMPUTED,PSRDIFF,0.150,166.600,0.0333,359.847825,-0.0213,0.0*8d937a2d
256: 24.10.2014.19.3.2.5
#BESTUTMA,COM1,0,54.5,FINESTEERING,1815,493286.200,00000000,eb16,6988;SOL_COMPUTED,PSRDIFF,30,T,4467786.6319,434256.1277,667.2314,52.1000,WGS84,1.9002,1.4166,3.2248,"0",166.600,0.000,17,13,0,0,0,08,0,01*c8491fae
257: 24.10.2014.19.3.2.101
#BESTVELA,COM1,0,54.5,FINESTEERING,1815,493286.400,00000000,827b,6988;SOL_COMPUTED,PSRDIFF,0.150,166.800,0.0261,231.439061,0.0033,0.0*42930963
258: 24.10.2014.19.3.2.196
#BESTUTMA,COM1,0,54.5,FINESTEERING,1815,493286.400,00000000,eb16,6988;SOL_COMPUTED,PSRDIFF,30,T,4467786.6497,434256.1173,667.2385,52.1000,WGS84,1.9036,1.4191,3.2308,"0",166.800,0.000,17,13,0,0,0,08,0,01*2598b0c6
259: 24.10.2014.19.3.2.308
#BESTVELA,COM1,0,55.5,FINESTEERING,1815,493286.600,00000000,827b,6988;SOL_COMPUTED,PSRDIFF,0.150,167.000,0.0138,197.277434,0.0100,0.0*bacd86ea
260: 24.10.2014.19.3.2.404
#BESTUTMA,COM1,0,55.5,FINESTEERING,1815,493286.600,00000000,eb16,6988;SOL_COMPUTED,PSRDIFF,30,T,4467786.6517,434256.1154,667.2448,52.1000,WGS84,1.9068,1.4216,3.2367,"0",167.000,0.000,17,13,0,0,0,08,0,01*574439ea
261: 24.10.2014.19.3.2.515
#BESTVELA,COM1,0,55.5,FINESTEERING,1815,493286.800,00000000,827b,6988;SOL_COMPUTED,PSRDIFF,0.150,167.200,0.0192,205.772210,0.0325,0.0*3adc0d98
262: 24.10.2014.19.3.2.595
#BESTUTMA,COM1,0,55.5,FINESTEERING,1815,493286.800,00000000,eb16,6988;SOL_COMPUTED,PSRDIFF,30,T,4467786.6525,434256.1112,667.2490,52.1000,WGS84,1.9101,1.4241,3.2428,"0",167.200,0.000,17,13,0,0,0,08,0,01*ae071271
263: 24.10.2014.19.3.2.707
#BESTVELA,COM1,0,55.5,FINESTEERING,1815,493287.000,00000000,827b,6988;SOL_COMPUTED,PSRDIFF,0.150,167.400,0.0054,6.561112,-0.0605,0.0*fe24cc49
264: 24.10.2014.19.3.2.803
#BESTUTMA,COM1,0,55.5,FINESTEERING,1815,493287.000,00000000,eb16,6988;SOL_COMPUTED,PSRDIFF,30,T,4467786.6500,434256.1114,667.2531,52.1000,WGS84,1.9118,1.4238,3.2485,"0",167.400,0.000,16,13,0,0,0,08,0,01*8f1692dd
265: 24.10.2014.19.3.2.914
#BESTVELA,COM1,0,55.5,FINESTEERING,1815,493287.200,00000000,827b,6988;SOL_COMPUTED,PSRDIFF,0.150,167.600,0.0260,226.334481,0.0514,0.0*17eef911
266: 24.10.2014.19.3.2.994
#BESTUTMA,COM1,0,55.5,FINESTEERING,1815,493287.200,00000000,eb16,6988;SOL_COMPUTED,PSRDIFF,30,T,4467786.7508,434255.9896,667.3284,52.1000,WGS84,1.9080,1.4137,3.2531,"0",167.600,0.000,16,13,0,0,0,08,0,01*65770786
267: 24.10.2014.19.3.3.106
#BESTVELA,COM1,0,55.5,FINESTEERING,1815,493287.400,00000000,827b,6988;SOL_COMPUTED,PSRDIFF,0.150,167.800,0.0166,27.764714,-0.0154,0.0*51d5f109
268: 24.10.2014.19.3.3.202
#BESTUTMA,COM1,0,55.5,FINESTEERING,1815,493287.400,00000000,eb16,6988;SOL_COMPUTED,PSRDIFF,30,T,4467786.7785,434255.9683,667.3324,52.1000,WGS84,1.9118,1.4173,3.2591,"0",167.800,0.000,17,13,0,0,0,08,0,01*6b9c792d
269: 24.10.2014.19.3.3.313
#BESTVELA,COM1,0,55.5,FINESTEERING,1815,493287.600,00000000,827b,6988;SOL_COMPUTED,PSRDIFF,0.150,168.000,0.0127,7.357178,0.0258,0.0*0154bf68
270: 24.10.2014.19.3.3.393
#BESTUTMA,COM1,0,55.5,FINESTEERING,1815,493287.600,00000000,eb16,6988;SOL_COMPUTED,PSRDIFF,30,T,4467786.8077,434255.9264,667.3524,52.1000,WGS84,1.9140,1.4178,3.2650,"0",168.000,0.000,17,13,0,0,0,08,0,01*466d75f9
271: 24.10.2014.19.3.3.505
#BESTVELA,COM1,0,55.5,FINESTEERING,1815,493287.800,00000000,827b,6988;SOL_COMPUTED,PSRDIFF,0.150,168.200,0.0388,176.756560,0.0101,0.0*9220f6e4
272: 24.10.2014.19.3.3.601
#BESTUTMA,COM1,0,55.5,FINESTEERING,1815,493287.800,00000000,eb16,6988;SOL_COMPUTED,PSRDIFF,30,T,4467786.8265,434255.8983,667.3679,52.1000,WGS84,1.9170,1.4202,3.2706,"0",168.200,0.000,18,13,0,0,0,08,0,01*61b53a72
273: 24.10.2014.19.3.3.712
#BESTVELA,COM1,0,55.5,FINESTEERING,1815,493288.000,00000000,827b,6988;SOL_COMPUTED,PSRDIFF,0.150,168.400,0.0079,328.435053,0.0068,0.0*4e7d4120
274: 24.10.2014.19.3.3.792
#BESTUTMA,COM1,0,55.5,FINESTEERING,1815,493288.000,00000000,eb16,6988;SOL_COMPUTED,PSRDIFF,30,T,4467786.8019,434255.9196,667.3611,52.1000,WGS84,1.9212,1.4243,3.2768,"0",168.400,0.000,18,13,0,0,0,08,0,01*3cb6526b
275: 24.10.2014.19.3.3.904
#BESTVELA,COM1,0,55.5,FINESTEERING,1815,493288.200,00000000,827b,6988;SOL_COMPUTED,PSRDIFF,0.150,168.600,0.0158,304.177931,-0.0129,0.0*e3889c24
276: 24.10.2014.19.3.4.0
#BESTUTMA,COM1,0,55.5,FINESTEERING,1815,493288.200,00000000,eb16,6988;SOL_COMPUTED,PSRDIFF,30,T,4467786.7443,434255.9666,667.3494,52.1000,WGS84,1.9233,1.4247,3.2827,"0",168.600,0.000,18,13,0,0,0,08,0,01*a60552dd
277: 24.10.2014.19.3.4.111
#BESTVELA,COM1,0,55.5,FINESTEERING,1815,493288.400,00000000,827b,6988;SOL_COMPUTED,PSRDIFF,0.150,168.800,0.0332,203.116621,-0.0071,0.0*e6743af2
278: 24.10.2014.19.3.4.191
#BESTUTMA,COM1,0,55.5,FINESTEERING,1815,493288.400,00000000,eb16,6988;SOL_COMPUTED,PSRDIFF,30,T,4467786.8621,434255.8251,667.4333,52.1000,WGS84,1.9239,1.4223,3.2882,"0",168.800,0.000,17,13,0,0,0,08,0,01*b7d7340d
279: 24.10.2014.19.3.4.303
#BESTVELA,COM1,0,55.5,FINESTEERING,1815,493288.600,00000000,827b,6988;SOL_COMPUTED,PSRDIFF,0.150,169.000,0.0285,217.571025,-0.0234,0.0*ac98f4d9
280: 24.10.2014.19.3.4.398
#BESTUTMA,COM1,0,55.5,FINESTEERING,1815,493288.600,00000000,eb16,6988;SOL_COMPUTED,PSRDIFF,30,T,4467786.8036,434255.8822,667.4050,52.1000,WGS84,1.9277,1.4254,3.2945,"0",169.000,0.000,18,13,0,0,0,08,0,01*77549859
281: 24.10.2014.19.3.4.510
#BESTVELA,COM1,0,58.5,FINESTEERING,1815,493288.800,00000000,827b,6988;SOL_COMPUTED,PSRDIFF,0.150,169.200,0.0364,234.437717,0.0244,0.0*e85bcc01
282: 24.10.2014.19.3.4.590
#BESTUTMA,COM1,0,58.5,FINESTEERING,1815,493288.800,00000000,eb16,6988;SOL_COMPUTED,PSRDIFF,30,T,4467786.7848,434255.8920,667.4139,52.1000,WGS84,1.9314,1.4286,3.3007,"0",169.200,0.000,17,13,0,0,0,08,0,01*b36df2af
283: 24.10.2014.19.3.4.702
#BESTVELA,COM1,0,58.5,FINESTEERING,1815,493289.000,00000000,827b,6988;SOL_COMPUTED,PSRDIFF,0.150,169.400,0.0090,283.845943,-0.0257,0.0*253316a6
284: 24.10.2014.19.3.4.797
#BESTUTMA,COM1,0,58.5,FINESTEERING,1815,493289.000,00000000,eb16,6988;SOL_COMPUTED,PSRDIFF,30,T,4467786.8522,434255.8106,667.4649,52.1000,WGS84,1.9347,1.4311,3.3068,"0",169.400,0.000,17,13,0,0,0,08,0,01*4d692ff9
285: 24.10.2014.19.3.4.909
#BESTVELA,COM1,0,58.5,FINESTEERING,1815,493289.200,00000000,827b,6988;SOL_COMPUTED,PSRDIFF,0.150,169.600,0.0374,159.410264,0.0192,0.0*f760fc00
286: 24.10.2014.19.3.4.989
#BESTUTMA,COM1,0,58.5,FINESTEERING,1815,493289.200,00000000,eb16,6988;SOL_COMPUTED,PSRDIFF,30,T,4467786.8315,434255.8230,667.4694,52.1000,WGS84,1.9372,1.4322,3.3126,"0",169.600,0.000,17,13,0,0,0,08,0,01*43e6e34b
287: 24.10.2014.19.3.5.101
#BESTVELA,COM1,0,58.5,FINESTEERING,1815,493289.400,00000000,827b,6988;SOL_COMPUTED,PSRDIFF,0.150,169.800,0.0116,222.492633,0.0030,0.0*9fa3e6c6
288: 24.10.2014.19.3.5.196
#BESTUTMA,COM1,0,58.5,FINESTEERING,1815,493289.400,00000000,eb16,6988;SOL_COMPUTED,PSRDIFF,30,T,4467786.8225,434255.8258,667.4765,52.1000,WGS84,1.9407,1.4350,3.3187,"0",169.800,0.000,17,13,0,0,0,08,0,01*d547d8fc
289: 24.10.2014.19.3.5.308
